[{"id": "hc8SkNmMXtZdaryo5O0jgw", "alias": "argenta-bead-company-little-rock-3", "name": "Argenta Bead Company", "image_url": "https://s3-media1.fl.yelpcdn.com/bphoto/N5O3DX6fjsADCUEKTSEnAw/o.jpg", "is_closed": false, "url": "https://www.yelp.com/biz/argenta-bead-company-little-rock-3?adjust_creative=_XtPN5sB9p2gFalQqwrzYQ&utm_campaign=yelp_api_v3&utm_medium=api_v3_business_search&utm_source=_XtPN5sB9p2gFalQqwrzYQ", "review_count": 11, "categories": [{"alias": "jewelry", "title": "Jewelry"}, {"alias": "jewelryrepair", "title": "Jewelry Repair"}, {"alias": "hobbyshops", "title": "Hobby Shops"}], "rating": 5.0, "coordinates": {"latitude": 34.7331779396823, "longitude": -92.2735700328491}, "transactions": [], "price": "$$", "location": {"address1": "1608 Main St", "address2": "", "address3": "", "city": "Little Rock", "zip_code": "72206", "country": "US", "state": "AR", "display_address": ["1608 Main St", "Little Rock, AR 72206"]}, "phone": "+15015370928", "display_phone": "(501) 537-0928", "distance": 7765.738927784151}, {"id": "hFqYM2a1h1zn_VZlwws2Zw", "alias": "shop-the-rock-little-rock", "name": "Shop the Rock", "image_url": "", "is_closed": false, "url": "https://www.yelp.com/biz/shop-the-rock-little-rock?adjust_creative=_XtPN5sB9p2gFalQqwrzYQ&utm_campaign=yelp_api_v3&utm_medium=api_v3_business_search&utm_source=_XtPN5sB9p2gFalQqwrzYQ", "review_count": 1, "categories": [{"alias": "giftshops", "title": "Gift Shops"}, {"alias": "souvenirs", "title": "Souvenir Shops"}], "rating": 1.0, "coordinates": {"latitude": 34.74774, "longitude": -92.26564}, "transactions": [], "location": {"address1": "400 President Clinton Ave", "address2": null, "address3": null, "city": "Little Rock", "zip_code": "72201", "country": "US", "state": "AR", "display_address": ["400 President Clinton Ave", "Little Rock, AR 72201"]}, "phone": "+15013203515", "display_phone": "(501) 320-3515", "distance": 8260.724073732083}, {"id": "yJDHOwcv9MzeLfyhWmDJZQ", "alias": "danwerke-jewelers-little-rock", "name": "Danwerke Jewelers", "image_url": "https://s3-media3.fl.yelpcdn.com/bphoto/JOmQ_3_r0fBnW7CqoWqcag/o.jpg", "is_closed": false, "url": "https://www.yelp.com/biz/danwerke-jewelers-little-rock?adjust_creative=_XtPN5sB9p2gFalQqwrzYQ&utm_campaign=yelp_api_v3&utm_medium=api_v3_business_search&utm_source=_XtPN5sB9p2gFalQqwrzYQ", "review_count": 9, "categories": [{"alias": "jewelry", "title": "Jewelry"}], "rating": 3.5, "coordinates": {"latitude": 34.7636260986328, "longitude": -92.3838729858398}, "transactions": [], "price": "$", "location": {"address1": "9816 N Rodney Parham Rd", "address2": "", "address3": "", "city": "Little Rock", "zip_code": "72227", "country": "US", "state": "AR", "display_address": ["9816 N Rodney Parham Rd", "Little Rock, AR 72227"]}, "phone": "+15012259593", "display_phone": "(501) 225-9593", "distance": 3028.9197634293764}, {"id": "ickdw7j7rSSU9X4XYYGZSQ", "alias": "moxy-modern-mercantile-little-rock", "name": "MOXY Modern Mercantile", "image_url": "https://s3-media2.fl.yelpcdn.com/bphoto/4KvqT4OnfpPumkAMu-DtSQ/o.jpg", "is_closed": false, "url": "https://www.yelp.com/biz/moxy-modern-mercantile-little-rock?adjust_creative=_XtPN5sB9p2gFalQqwrzYQ&utm_campaign=yelp_api_v3&utm_medium=api_v3_business_search&utm_source=_XtPN5sB9p2gFalQqwrzYQ", "review_count": 8, "categories": [{"alias": "vintage", "title": "Used, Vintage & Consignment"}, {"alias": "giftshops", "title": "Gift Shops"}, {"alias": "homedecor", "title": "Home Decor"}], "rating": 4.5, "coordinates": {"latitude": 34.734612, "longitude": -92.272644}, "transactions": [], "price": "$$", "location": {"address1": "1419 S Main St", "address2": "", "address3": "", "city": "Little Rock", "zip_code": "72202", "country": "US", "state": "AR", "display_address": ["1419 S Main St", "Little Rock, AR 72202"]}, "phone": "+15013742474", "display_phone": "(501) 374-2474", "distance": 7815.919460574699}, {"id": "vqr9xSKAIOEWCk5xjbsTIw", "alias": "gold-and-diamond-prospectors-little-rock", "name": "Gold & Diamond Prospectors", "image_url": "https://s3-media3.fl.yelpcdn.com/bphoto/CLcMs7Pmm2HPCux91uSCoQ/o.jpg", "is_closed": false, "url": "https://www.yelp.com/biz/gold-and-diamond-prospectors-little-rock?adjust_creative=_XtPN5sB9p2gFalQqwrzYQ&utm_campaign=yelp_api_v3&utm_medium=api_v3_business_search&utm_source=_XtPN5sB9p2gFalQqwrzYQ", "review_count": 1, "categories": [{"alias": "goldbuyers", "title": "Gold Buyers"}, {"alias": "jewelry", "title": "Jewelry"}, {"alias": "jewelryrepair", "title": "Jewelry Repair"}], "rating": 1.0, "coordinates": {"latitude": 34.75822, "longitude": -92.37527}, "transactions": [], "location": {"address1": "9112 N Rodney Parham Rd", "address2": null, "address3": "", "city": "Little Rock", "zip_code": "72205", "country": "US", "state": "AR", "display_address": ["9112 N Rodney Parham Rd", "Little Rock, AR 72205"]}, "phone": "+15015650065", "display_phone": "(501) 565-0065", "distance": 2063.9852348921827}, {"id": "txVDOZDx1yTc3tUReQae3w", "alias": "the-full-moon-little-rock", "name": "The Full Moon", "image_url": "https://s3-media3.fl.yelpcdn.com/bphoto/06ciJnv5pqpnsCOidO_Lzg/o.jpg", "is_closed": false, "url": "https://www.yelp.com/biz/the-full-moon-little-rock?adjust_creative=_XtPN5sB9p2gFalQqwrzYQ&utm_campaign=yelp_api_v3&utm_medium=api_v3_business_search&utm_source=_XtPN5sB9p2gFalQqwrzYQ", "review_count": 1, "categories": [{"alias": "giftshops", "title": "Gift Shops"}], "rating": 5.0, "coordinates": {"latitude": 34.7620938, "longitude": -92.3313093}, "transactions": [], "location": {"address1": "3625 Kavanaugh Blvd", "address2": "", "address3": "", "city": "Little Rock", "zip_code": "72205", "country": "US", "state": "AR", "display_address": ["3625 Kavanaugh Blvd", "Little Rock, AR 72205"]}, "phone": "+15016634367", "display_phone": "(501) 663-4367", "distance": 2776.3369416573814}, {"id": "UzganrT8dEwKSDv6AQPQtw", "alias": "bella-vita-jewelry-little-rock", "name": "Bella Vita Jewelry", "image_url": "https://s3-media3.fl.yelpcdn.com/bphoto/ko8zANmzmBJCdxvH8YRapQ/o.jpg", "is_closed": false, "url": "https://www.yelp.com/biz/bella-vita-jewelry-little-rock?adjust_creative=_XtPN5sB9p2gFalQqwrzYQ&utm_campaign=yelp_api_v3&utm_medium=api_v3_business_search&utm_source=_XtPN5sB9p2gFalQqwrzYQ", "review_count": 9, "categories": [{"alias": "giftshops", "title": "Gift Shops"}, {"alias": "jewelry", "title": "Jewelry"}], "rating": 5.0, "coordinates": {"latitude": 34.7432896, "longitude": -92.2716509}, "transactions": [], "price": "$$", "location": {"address1": "108 W 6th St", "address2": "Ste A", "address3": "", "city": "Little Rock", "zip_code": "72201", "country": "US", "state": "AR", "display_address": ["108 W 6th St", "Ste A", "Little Rock, AR 72201"]}, "phone": "+15013969146", "display_phone": "(501) 396-9146", "distance": 7777.876933679813}, {"id": "juhAlIdgF1spWxhJqsX5tg", "alias": "box-turtle-little-rock", "name": "Box Turtle", "image_url": "https://s3-media4.fl.yelpcdn.com/bphoto/bErYYr9BQxsHgf8Il7lAYg/o.jpg", "is_closed": false, "url": "https://www.yelp.com/biz/box-turtle-little-rock?adjust_creative=_XtPN5sB9p2gFalQqwrzYQ&utm_campaign=yelp_api_v3&utm_medium=api_v3_business_search&utm_source=_XtPN5sB9p2gFalQqwrzYQ", "review_count": 14, "categories": [{"alias": "jewelry", "title": "Jewelry"}, {"alias": "womenscloth", "title": "Women's Clothing"}, {"alias": "giftshops", "title": "Gift Shops"}], "rating": 4.5, "coordinates": {"latitude": 34.75749, "longitude": -92.32266}, "transactions": [], "price": "$$$$", "location": {"address1": "2616 Kavanaugh Blvd", "address2": "", "address3": "", "city": "Little Rock", "zip_code": "72205", "country": "US", "state": "AR", "display_address": ["2616 Kavanaugh Blvd", "Little Rock, AR 72205"]}, "phone": "+15016611167", "display_phone": "(501) 661-1167", "distance": 3264.3884775972006}, {"id": "O6_t46tE9X258CVe_957LQ", "alias": "game-goblins-little-rock", "name": "Game Goblins", "image_url": "https://s3-media1.fl.yelpcdn.com/bphoto/NsJhjYMGW21EKvzhvcUjPg/o.jpg", "is_closed": false, "url": "https://www.yelp.com/biz/game-goblins-little-rock?adjust_creative=_XtPN5sB9p2gFalQqwrzYQ&utm_campaign=yelp_api_v3&utm_medium=api_v3_business_search&utm_source=_XtPN5sB9p2gFalQqwrzYQ", "review_count": 13, "categories": [{"alias": "toys", "title": "Toy Stores"}, {"alias": "hobbyshops", "title": "Hobby Shops"}, {"alias": "tabletopgames", "title": "Tabletop Games"}], "rating": 4.5, "coordinates": {"latitude": 34.7442024, "longitude": -92.4067871}, "transactions": [], "price": "$", "location": {"address1": "1121 S Bowman Rd", "address2": "Ste C7", "address3": "", "city": "Little Rock", "zip_code": "72211", "country": "US", "state": "AR", "display_address": ["1121 S Bowman Rd", "Ste C7", "Little Rock, AR 72211"]}, "phone": "+15012244263", "display_phone": "(501) 224-4263", "distance": 4610.012960928405}, {"id": "ThrXmtzXvEyQ_UsDZHmUzQ", "alias": "braswell-and-son-pawn-broker-little-rock", "name": "Braswell & Son Pawn Broker", "image_url": "", "is_closed": false, "url": "https://www.yelp.com/biz/braswell-and-son-pawn-broker-little-rock?adjust_creative=_XtPN5sB9p2gFalQqwrzYQ&utm_campaign=yelp_api_v3&utm_medium=api_v3_business_search&utm_source=_XtPN5sB9p2gFalQqwrzYQ", "review_count": 9, "categories": [{"alias": "pawn", "title": "Pawn Shops"}, {"alias": "jewelry", "title": "Jewelry"}], "rating": 5.0, "coordinates": {"latitude": 34.7524101206159, "longitude": -92.3742407073881}, "transactions": [], "location": {"address1": "9101 W Markham St", "address2": null, "address3": null, "city": "Little Rock", "zip_code": "72205", "country": "US", "state": "AR", "display_address": ["9101 W Markham St", "Little Rock, AR 72205"]}, "phone": "+15012287296", "display_phone": "(501) 228-7296", "distance": 1680.8762735060545}, {"id": "ZJxl1L3-blsZRk9Lyg4nLg", "alias": "4square-cafe-and-gifts-little-rock", "name": "4square Cafe & Gifts", "image_url": "https://s3-media2.fl.yelpcdn.com/bphoto/YdZgXNJ2n_FhPN-gHPB08Q/o.jpg", "is_closed": false, "url": "https://www.yelp.com/biz/4square-cafe-and-gifts-little-rock?adjust_creative=_XtPN5sB9p2gFalQqwrzYQ&utm_campaign=yelp_api_v3&utm_medium=api_v3_business_search&utm_source=_XtPN5sB9p2gFalQqwrzYQ", "review_count": 66, "categories": [{"alias": "delis", "title": "Delis"}, {"alias": "vegetarian", "title": "Vegetarian"}, {"alias": "souvenirs", "title": "Souvenir Shops"}], "rating": 4.0, "coordinates": {"latitude": 34.74729, "longitude": -92.26651}, "transactions": ["pickup", "delivery"], "price": "$", "location": {"address1": "405 President Clinton Ave", "address2": "", "address3": "", "city": "Little Rock", "zip_code": "72201", "country": "US", "state": "AR", "display_address": ["405 President Clinton Ave", "Little Rock, AR 72201"]}, "phone": "+15012442622", "display_phone": "(501) 244-2622", "distance": 8236.59653017342}, {"id": "IXqY4mxxQ-PZL1EHTlv5ag", "alias": "jones-and-son-fine-jewelry-little-rock-2", "name": "Jones & Son Fine Jewelry", "image_url": "https://s3-media1.fl.yelpcdn.com/bphoto/xme_w4Q5ku5H3Exu2eLXSA/o.jpg", "is_closed": false, "url": "https://www.yelp.com/biz/jones-and-son-fine-jewelry-little-rock-2?adjust_creative=_XtPN5sB9p2gFalQqwrzYQ&utm_campaign=yelp_api_v3&utm_medium=api_v3_business_search&utm_source=_XtPN5sB9p2gFalQqwrzYQ", "review_count": 7, "categories": [{"alias": "jewelry", "title": "Jewelry"}], "rating": 4.0, "coordinates": {"latitude": 34.770968, "longitude": -92.397784}, "transactions": [], "price": "$$$$", "location": {"address1": "11121 N Rodney Parham Rd", "address2": "", "address3": "", "city": "Little Rock", "zip_code": "72212", "country": "US", "state": "AR", "display_address": ["11121 N Rodney Parham Rd", "Little Rock, AR 72212"]}, "phone": "+15012243433", "display_phone": "(501) 224-3433", "distance": 4536.623582189548}, {"id": "jQA1ZIDkIlBEkVUeTSFbPA", "alias": "rail-and-sprue-hobbies-jacksonville-2", "name": "Rail & Sprue Hobbies", "image_url": "https://s3-media2.fl.yelpcdn.com/bphoto/vJSO0Sq3K795uBaoJKsCZg/o.jpg", "is_closed": false, "url": "https://www.yelp.com/biz/rail-and-sprue-hobbies-jacksonville-2?adjust_creative=_XtPN5sB9p2gFalQqwrzYQ&utm_campaign=yelp_api_v3&utm_medium=api_v3_business_search&utm_source=_XtPN5sB9p2gFalQqwrzYQ", "review_count": 2, "categories": [{"alias": "hobbyshops", "title": "Hobby Shops"}], "rating": 5.0, "coordinates": {"latitude": 34.8777465820312, "longitude": -92.116325378418}, "transactions": [], "location": {"address1": "1200 John Harden Dr", "address2": null, "address3": null, "city": "Jacksonville", "zip_code": "72076", "country": "US", "state": "AR", "display_address": ["1200 John Harden Dr", "Jacksonville, AR 72076"]}, "phone": "+15019826836", "display_phone": "(501) 982-6836", "distance": 26235.190491424157}, {"id": "ukgInUmYfzsRaPaHn3ZCdg", "alias": "the-showroom-little-rock-4", "name": "The Showroom", "image_url": "https://s3-media3.fl.yelpcdn.com/bphoto/Uhd348NJS54VR8EELOUnLQ/o.jpg", "is_closed": false, "url": "https://www.yelp.com/biz/the-showroom-little-rock-4?adjust_creative=_XtPN5sB9p2gFalQqwrzYQ&utm_campaign=yelp_api_v3&utm_medium=api_v3_business_search&utm_source=_XtPN5sB9p2gFalQqwrzYQ", "review_count": 1, "categories": [{"alias": "framing", "title": "Framing"}, {"alias": "galleries", "title": "Art Galleries"}], "rating": 5.0, "coordinates": {"latitude": 34.7566177032806, "longitude": -92.2995815905896}, "transactions": [], "location": {"address1": "2313 Cantrell Rd", "address2": "", "address3": "", "city": "Little Rock", "zip_code": "72202", "country": "US", "state": "AR", "display_address": ["2313 Cantrell Rd", "Little Rock, AR 72202"]}, "phone": "+15013727373", "display_phone": "(501) 372-7373", "distance": 5289.514383602381}, {"id": "0uxLbYuKViH9bmBmCn4Lmg", "alias": "powder-and-smoke-little-rock", "name": "Powder & Smoke", "image_url": "https://s3-media2.fl.yelpcdn.com/bphoto/nALf5B1R64i6k_tDDD0Fng/o.jpg", "is_closed": false, "url": "https://www.yelp.com/biz/powder-and-smoke-little-rock?adjust_creative=_XtPN5sB9p2gFalQqwrzYQ&utm_campaign=yelp_api_v3&utm_medium=api_v3_business_search&utm_source=_XtPN5sB9p2gFalQqwrzYQ", "review_count": 4, "categories": [{"alias": "jewelry", "title": "Jewelry"}], "rating": 3.0, "coordinates": {"latitude": 34.793599, "longitude": -92.40285}, "transactions": [], "price": "$$", "location": {"address1": "11525 Cantrell Rd", "address2": "Ste 205", "address3": "", "city": "Little Rock", "zip_code": "72212", "country": "US", "state": "AR", "display_address": ["11525 Cantrell Rd", "Ste 205", "Little Rock, AR 72212"]}, "phone": "+15012255353", "display_phone": "(501) 225-5353", "distance": 6583.621958344889}, {"id": "08LfIhAFIX0araj4pbr_Hw", "alias": "sissys-log-cabin-little-rock-2", "name": "Sissy's Log Cabin", "image_url": "https://s3-media4.fl.yelpcdn.com/bphoto/YC0UBy01jjOcTunKXfiShA/o.jpg", "is_closed": false, "url": "https://www.yelp.com/biz/sissys-log-cabin-little-rock-2?adjust_creative=_XtPN5sB9p2gFalQqwrzYQ&utm_campaign=yelp_api_v3&utm_medium=api_v3_business_search&utm_source=_XtPN5sB9p2gFalQqwrzYQ", "review_count": 9, "categories": [{"alias": "jewelry", "title": "Jewelry"}], "rating": 2.0, "coordinates": {"latitude": 34.76888, "longitude": -92.33902}, "transactions": [], "price": "$$", "location": {"address1": "1825 N Grant St", "address2": null, "address3": "", "city": "Little Rock", "zip_code": "72207", "country": "US", "state": "AR", "display_address": ["1825 N Grant St", "Little Rock, AR 72207"]}, "phone": "+15016630066", "display_phone": "(501) 663-0066", "distance": 2830.5584914070955}, {"id": "RqMZ_9Ua_s3g2mqZWgEICA", "alias": "mo-jewelers-little-rock", "name": "Mo Jewelers", "image_url": "https://s3-media1.fl.yelpcdn.com/bphoto/bJ1JqtWiJDrR_ALyxWIlJA/o.jpg", "is_closed": false, "url": "https://www.yelp.com/biz/mo-jewelers-little-rock?adjust_creative=_XtPN5sB9p2gFalQqwrzYQ&utm_campaign=yelp_api_v3&utm_medium=api_v3_business_search&utm_source=_XtPN5sB9p2gFalQqwrzYQ", "review_count": 1, "categories": [{"alias": "jewelry", "title": "Jewelry"}, {"alias": "jewelryrepair", "title": "Jewelry Repair"}, {"alias": "watch_repair", "title": "Watch Repair"}], "rating": 4.0, "coordinates": {"latitude": 34.6602619, "longitude": -92.4069774}, "transactions": [], "location": {"address1": "11201 Bass Pro Parkway", "address2": "Ste B-M150", "address3": "", "city": "Little Rock", "zip_code": "72210", "country": "US", "state": "AR", "display_address": ["11201 Bass Pro Parkway", "Ste B-M150", "Little Rock, AR 72210"]}, "phone": "+15015513507", "display_phone": "(501) 551-3507", "distance": 10810.662548226523}, {"id": "bXq7Q8n0Y4B0XYE33GOhEQ", "alias": "the-robust-olive-little-rock", "name": "The Robust Olive", "image_url": "https://s3-media1.fl.yelpcdn.com/bphoto/Cu_v065oBLjEJdKgVhHIRg/o.jpg", "is_closed": false, "url": "https://www.yelp.com/biz/the-robust-olive-little-rock?adjust_creative=_XtPN5sB9p2gFalQqwrzYQ&utm_campaign=yelp_api_v3&utm_medium=api_v3_business_search&utm_source=_XtPN5sB9p2gFalQqwrzYQ", "review_count": 3, "categories": [{"alias": "oliveoil", "title": "Olive Oil"}, {"alias": "flowers", "title": "Flowers & Gifts"}, {"alias": "healthmarkets", "title": "Health Markets"}], "rating": 5.0, "coordinates": {"latitude": 34.7956, "longitude": -92.40386}, "transactions": ["pickup", "delivery"], "location": {"address1": "11610 Pleasant Ridge W", "address2": "Ste 108", "address3": "", "city": "Little Rock", "zip_code": "72223", "country": "US", "state": "AR", "display_address": ["11610 Pleasant Ridge W", "Ste 108", "Little Rock, AR 72223"]}, "phone": "+15013798399", "display_phone": "(501) 379-8399", "distance": 6827.960052960353}, {"id": "we6Iiwh3AsfZRQwC5a0v7w", "alias": "vanness-little-rock", "name": "Vanness", "image_url": "https://s3-media1.fl.yelpcdn.com/bphoto/zvBelvL8m2MMTKaec6vTjw/o.jpg", "is_closed": false, "url": "https://www.yelp.com/biz/vanness-little-rock?adjust_creative=_XtPN5sB9p2gFalQqwrzYQ&utm_campaign=yelp_api_v3&utm_medium=api_v3_business_search&utm_source=_XtPN5sB9p2gFalQqwrzYQ", "review_count": 13, "categories": [{"alias": "engraving", "title": "Engraving"}, {"alias": "stationery", "title": "Cards & Stationery"}, {"alias": "artsupplies", "title": "Art Supplies"}], "rating": 4.0, "coordinates": {"latitude": 34.70352242460966, "longitude": -92.39248062149984}, "transactions": [], "price": "$$$", "location": {"address1": "5320 S Shackleford", "address2": "Ste F", "address3": "", "city": "Little Rock", "zip_code": "72004", "country": "US", "state": "AR", "display_address": ["5320 S Shackleford", "Ste F", "Little Rock, AR 72004"]}, "phone": "+15013532362", "display_phone": "(501) 353-2362", "distance": 5955.080211428224}, {"id": "Lgpc9BafsKDeFzs1XX6ZtA", "alias": "arkansas-studies-institute-little-rock", "name": "Arkansas Studies Institute", "image_url": "https://s3-media3.fl.yelpcdn.com/bphoto/cNbogrqez2hm5sJW0BYs9g/o.jpg", "is_closed": false, "url": "https://www.yelp.com/biz/arkansas-studies-institute-little-rock?adjust_creative=_XtPN5sB9p2gFalQqwrzYQ&utm_campaign=yelp_api_v3&utm_medium=api_v3_business_search&utm_source=_XtPN5sB9p2gFalQqwrzYQ", "review_count": 2, "categories": [{"alias": "libraries", "title": "Libraries"}, {"alias": "galleries", "title": "Art Galleries"}], "rating": 4.5, "coordinates": {"latitude": 34.7473, "longitude": -92.26635}, "transactions": [], "price": "$$", "location": {"address1": "401 President Clinton Ave", "address2": "", "address3": "", "city": "Little Rock", "zip_code": "72201", "country": "US", "state": "AR", "display_address": ["401 President Clinton Ave", "Little Rock, AR 72201"]}, "phone": "+15013205791", "display_phone": "(501) 320-5791", "distance": 8219.466858312455}, {"id": "puNguchiryR1_aBAWeWSyg", "alias": "otaku-takeout-little-rock", "name": "Otaku Takeout", "image_url": "https://s3-media1.fl.yelpcdn.com/bphoto/Gj6raWDsEtZDP26ly-hvUg/o.jpg", "is_closed": false, "url": "https://www.yelp.com/biz/otaku-takeout-little-rock?adjust_creative=_XtPN5sB9p2gFalQqwrzYQ&utm_campaign=yelp_api_v3&utm_medium=api_v3_business_search&utm_source=_XtPN5sB9p2gFalQqwrzYQ", "review_count": 1, "categories": [{"alias": "toys", "title": "Toy Stores"}, {"alias": "festivals", "title": "Festivals"}, {"alias": "intlgrocery", "title": "International Grocery"}], "rating": 5.0, "coordinates": {"latitude": 34.66165733703154, "longitude": -92.40829888533209}, "transactions": [], "location": {"address1": "11201 Bass Pro Pkwy", "address2": "", "address3": null, "city": "Little Rock", "zip_code": "72210", "country": "US", "state": "AR", "display_address": ["11201 Bass Pro Pkwy", "Little Rock, AR 72210"]}, "phone": "+15016444331", "display_phone": "(501) 644-4331", "distance": 10723.210055022097}, {"id": "TNjn1AowsTRh-grbr_RBiA", "alias": "the-bernice-garden-little-rock", "name": "The Bernice Garden", "image_url": "https://s3-media4.fl.yelpcdn.com/bphoto/oYp-U1gkKdH4d3R1Ar6wjA/o.jpg", "is_closed": false, "url": "https://www.yelp.com/biz/the-bernice-garden-little-rock?adjust_creative=_XtPN5sB9p2gFalQqwrzYQ&utm_campaign=yelp_api_v3&utm_medium=api_v3_business_search&utm_source=_XtPN5sB9p2gFalQqwrzYQ", "review_count": 3, "categories": [{"alias": "gardens", "title": "Botanical Gardens"}, {"alias": "venues", "title": "Venues & Event Spaces"}, {"alias": "galleries", "title": "Art Galleries"}], "rating": 4.5, "coordinates": {"latitude": 34.73502, "longitude": -92.27255}, "transactions": [], "location": {"address1": "1401 S Main St", "address2": "", "address3": "", "city": "Little Rock", "zip_code": "72202", "country": "US", "state": "AR", "display_address": ["1401 S Main St", "Little Rock, AR 72202"]}, "phone": "+15014103938", "display_phone": "(501) 410-3938", "distance": 7815.69043248826}, {"id": "nvYgjN57JXizIuZnI9H1CQ", "alias": "fuquas-jewelry-little-rock", "name": "Fuqua's Jewelry", "image_url": "https://s3-media4.fl.yelpcdn.com/bphoto/qC_ymF35liw5asM5h09i9A/o.jpg", "is_closed": false, "url": "https://www.yelp.com/biz/fuquas-jewelry-little-rock?adjust_creative=_XtPN5sB9p2gFalQqwrzYQ&utm_campaign=yelp_api_v3&utm_medium=api_v3_business_search&utm_source=_XtPN5sB9p2gFalQqwrzYQ", "review_count": 8, "categories": [{"alias": "jewelry", "title": "Jewelry"}, {"alias": "jewelryrepair", "title": "Jewelry Repair"}], "rating": 4.0, "coordinates": {"latitude": 34.74603, "longitude": -92.2826}, "transactions": [], "price": "$$$", "location": {"address1": "1022 W Capitol Ave", "address2": "", "address3": null, "city": "Little Rock", "zip_code": "72201", "country": "US", "state": "AR", "display_address": ["1022 W Capitol Ave", "Little Rock, AR 72201"]}, "phone": "+15013742000", "display_phone": "(501) 374-2000", "distance": 6760.83671698545}, {"id": "tqX3jvhelVMgOKxB0XVLVg", "alias": "the-empty-vase-little-rock", "name": "The Empty Vase", "image_url": "https://s3-media1.fl.yelpcdn.com/bphoto/gLCVTMlBpfOz2l13b6vYfg/o.jpg", "is_closed": false, "url": "https://www.yelp.com/biz/the-empty-vase-little-rock?adjust_creative=_XtPN5sB9p2gFalQqwrzYQ&utm_campaign=yelp_api_v3&utm_medium=api_v3_business_search&utm_source=_XtPN5sB9p2gFalQqwrzYQ", "review_count": 10, "categories": [{"alias": "florists", "title": "Florists"}], "rating": 4.5, "coordinates": {"latitude": 34.77033180203011, "longitude": -92.4003216733224}, "transactions": [], "price": "$$", "location": {"address1": "11330 Arcade Dr", "address2": "Ste 3", "address3": "", "city": "Little Rock", "zip_code": "72212", "country": "US", "state": "AR", "display_address": ["11330 Arcade Dr", "Ste 3", "Little Rock, AR 72212"]}, "phone": "+15012213003", "display_phone": "(501) 221-3003", "distance": 4693.347464732121}, {"id": "jaDwrmFp_aEg7KGmEw5Nkw", "alias": "hometown-kountry-maumelle", "name": "Hometown Kountry", "image_url": "https://s3-media1.fl.yelpcdn.com/bphoto/IXqycV6K2Aopy7XOMpQ7zw/o.jpg", "is_closed": false, "url": "https://www.yelp.com/biz/hometown-kountry-maumelle?adjust_creative=_XtPN5sB9p2gFalQqwrzYQ&utm_campaign=yelp_api_v3&utm_medium=api_v3_business_search&utm_source=_XtPN5sB9p2gFalQqwrzYQ", "review_count": 1, "categories": [{"alias": "artsandcrafts", "title": "Arts & Crafts"}, {"alias": "antiques", "title": "Antiques"}, {"alias": "homedecor", "title": "Home Decor"}], "rating": 5.0, "coordinates": {"latitude": 34.828296, "longitude": -92.38194}, "transactions": [], "location": {"address1": "7420 Counts Massie Rd", "address2": "", "address3": null, "city": "Maumelle", "zip_code": "72113", "country": "US", "state": "AR", "display_address": ["7420 Counts Massie Rd", "Maumelle, AR 72113"]}, "phone": "+15018007788", "display_phone": "(501) 800-7788", "distance": 9201.68536230833}, {"id": "tKVU2dI1RzMzvgTp4o1aaA", "alias": "matt-mcleod-gallery-little-rock", "name": "Matt Mcleod Gallery", "image_url": "https://s3-media1.fl.yelpcdn.com/bphoto/By3gxZhFdOEzwhJVInYlEw/o.jpg", "is_closed": false, "url": "https://www.yelp.com/biz/matt-mcleod-gallery-little-rock?adjust_creative=_XtPN5sB9p2gFalQqwrzYQ&utm_campaign=yelp_api_v3&utm_medium=api_v3_business_search&utm_source=_XtPN5sB9p2gFalQqwrzYQ", "review_count": 1, "categories": [{"alias": "galleries", "title": "Art Galleries"}, {"alias": "publicart", "title": "Public Art"}], "rating": 5.0, "coordinates": {"latitude": 34.7432944, "longitude": -92.2714921}, "transactions": [], "location": {"address1": "108 W 6th St", "address2": "Ste A", "address3": "", "city": "Little Rock", "zip_code": "72201", "country": "US", "state": "AR", "display_address": ["108 W 6th St", "Ste A", "Little Rock, AR 72201"]}, "phone": "+15017258508", "display_phone": "(501) 725-8508", "distance": 7777.876933679813}, {"id": "ALBROI4jJD-ESvRpqwJHBg", "alias": "the-painted-pig-little-rock", "name": "The Painted Pig", "image_url": "https://s3-media1.fl.yelpcdn.com/bphoto/zmtbWWEJsYZJj8Ml4N0tCQ/o.jpg", "is_closed": false, "url": "https://www.yelp.com/biz/the-painted-pig-little-rock?adjust_creative=_XtPN5sB9p2gFalQqwrzYQ&utm_campaign=yelp_api_v3&utm_medium=api_v3_business_search&utm_source=_XtPN5sB9p2gFalQqwrzYQ", "review_count": 5, "categories": [{"alias": "artsandcrafts", "title": "Arts & Crafts"}, {"alias": "artclasses", "title": "Art Classes"}], "rating": 4.5, "coordinates": {"latitude": 34.769997, "longitude": -92.3363771}, "transactions": [], "price": "$$", "location": {"address1": "5611 Kavanaugh Blvd", "address2": null, "address3": null, "city": "Little Rock", "zip_code": "72207", "country": "US", "state": "AR", "display_address": ["5611 Kavanaugh Blvd", "Little Rock, AR 72207"]}, "phone": "+15012800553", "display_phone": "(501) 280-0553", "distance": 3044.854617907415}, {"id": "n1f8t22J2BhT74O7N0nnIQ", "alias": "barnes-and-noble-little-rock", "name": "Barnes & Noble", "image_url": "https://s3-media1.fl.yelpcdn.com/bphoto/9SNjGQ0RGmGJZv1RMUV-SA/o.jpg", "is_closed": false, "url": "https://www.yelp.com/biz/barnes-and-noble-little-rock?adjust_creative=_XtPN5sB9p2gFalQqwrzYQ&utm_campaign=yelp_api_v3&utm_medium=api_v3_business_search&utm_source=_XtPN5sB9p2gFalQqwrzYQ", "review_count": 18, "categories": [{"alias": "bookstores", "title": "Bookstores"}, {"alias": "toys", "title": "Toy Stores"}, {"alias": "tabletopgames", "title": "Tabletop Games"}], "rating": 3.0, "coordinates": {"latitude": 34.748325, "longitude": -92.402325}, "transactions": [], "price": "$$", "location": {"address1": "11500 Financial Ctr Pkwy", "address2": "", "address3": "", "city": "Little Rock", "zip_code": "72211", "country": "US", "state": "AR", "display_address": ["11500 Financial Ctr Pkwy", "Little Rock, AR 72211"]}, "phone": "+15019547646", "display_phone": "(501) 954-7646", "distance": 4180.654555976617}, {"id": "4sBlMFJ40K-OIsifO-MtDQ", "alias": "cantrell-gallery-little-rock", "name": "Cantrell Gallery", "image_url": "https://s3-media4.fl.yelpcdn.com/bphoto/Xx3HFABEP4nUJ4Y1Lp2Pcw/o.jpg", "is_closed": false, "url": "https://www.yelp.com/biz/cantrell-gallery-little-rock?adjust_creative=_XtPN5sB9p2gFalQqwrzYQ&utm_campaign=yelp_api_v3&utm_medium=api_v3_business_search&utm_source=_XtPN5sB9p2gFalQqwrzYQ", "review_count": 4, "categories": [{"alias": "galleries", "title": "Art Galleries"}], "rating": 5.0, "coordinates": {"latitude": 34.777166, "longitude": -92.366225}, "transactions": [], "price": "$$$", "location": {"address1": "8208 Cantrell Rd", "address2": "", "address3": "", "city": "Little Rock", "zip_code": "72227", "country": "US", "state": "AR", "display_address": ["8208 Cantrell Rd", "Little Rock, AR 72227"]}, "phone": "+15012241335", "display_phone": "(501) 224-1335", "distance": 3338.470034302248}, {"id": "dI9PV5hVsMGXHmoqVOJWrg", "alias": "park-hill-jewelers-north-little-rock-3", "name": "Park Hill Jewelers", "image_url": "https://s3-media4.fl.yelpcdn.com/bphoto/qTStuHFqnwojlmdaK8zSoQ/o.jpg", "is_closed": false, "url": "https://www.yelp.com/biz/park-hill-jewelers-north-little-rock-3?adjust_creative=_XtPN5sB9p2gFalQqwrzYQ&utm_campaign=yelp_api_v3&utm_medium=api_v3_business_search&utm_source=_XtPN5sB9p2gFalQqwrzYQ", "review_count": 1, "categories": [{"alias": "jewelry", "title": "Jewelry"}, {"alias": "jewelryrepair", "title": "Jewelry Repair"}], "rating": 1.0, "coordinates": {"latitude": 34.78685, "longitude": -92.26003}, "transactions": [], "location": {"address1": "3422 Jfk Blvd", "address2": null, "address3": "", "city": "North Little Rock", "zip_code": "72116", "country": "US", "state": "AR", "display_address": ["3422 Jfk Blvd", "North Little Rock, AR 72116"]}, "phone": "+15013197050", "display_phone": "(501) 319-7050", "distance": 9802.89433836208}, {"id": "EXqh_vv7ayBD6W_RRH2XRQ", "alias": "art-is-in-cakes-bakery-supply-little-rock", "name": "Art Is In Cakes Bakery Supply", "image_url": "https://s3-media4.fl.yelpcdn.com/bphoto/iLJNZVspMIj-AHLhc4Sq-w/o.jpg", "is_closed": false, "url": "https://www.yelp.com/biz/art-is-in-cakes-bakery-supply-little-rock?adjust_creative=_XtPN5sB9p2gFalQqwrzYQ&utm_campaign=yelp_api_v3&utm_medium=api_v3_business_search&utm_source=_XtPN5sB9p2gFalQqwrzYQ", "review_count": 2, "categories": [{"alias": "cookingclasses", "title": "Cooking Classes"}, {"alias": "kitchensupplies", "title": "Kitchen Supplies"}], "rating": 4.0, "coordinates": {"latitude": 34.75292, "longitude": -92.38365}, "transactions": [], "location": {"address1": "9807 W Markham St", "address2": "", "address3": null, "city": "Little Rock", "zip_code": "72205", "country": "US", "state": "AR", "display_address": ["9807 W Markham St", "Little Rock, AR 72205"]}, "phone": "+15012406102", "display_phone": "(501) 240-6102", "distance": 2529.156734720498}, {"id": "0ahP5X0oZezPN4lFdFg09w", "alias": "hobby-lobby-little-rock", "name": "Hobby Lobby", "image_url": "https://s3-media3.fl.yelpcdn.com/bphoto/iZRhSGevf0pJdW4c5zXOiQ/o.jpg", "is_closed": false, "url": "https://www.yelp.com/biz/hobby-lobby-little-rock?adjust_creative=_XtPN5sB9p2gFalQqwrzYQ&utm_campaign=yelp_api_v3&utm_medium=api_v3_business_search&utm_source=_XtPN5sB9p2gFalQqwrzYQ", "review_count": 16, "categories": [{"alias": "artsandcrafts", "title": "Arts & Crafts"}, {"alias": "hobbyshops", "title": "Hobby Shops"}, {"alias": "homedecor", "title": "Home Decor"}], "rating": 3.0, "coordinates": {"latitude": 34.753173828125, "longitude": -92.4089736938477}, "transactions": [], "price": "$", "location": {"address1": "12201 W Markham St", "address2": "", "address3": "", "city": "Little Rock", "zip_code": "72211", "country": "US", "state": "AR", "display_address": ["12201 W Markham St", "Little Rock, AR 72211"]}, "phone": "+15012243277", "display_phone": "(501) 224-3277", "distance": 4862.231893070355}, {"id": "HC-N_e-v1uch_-pDU0Uq5g", "alias": "tanarah-luxe-floral-little-rock", "name": "Tanarah Luxe Floral", "image_url": "https://s3-media4.fl.yelpcdn.com/bphoto/WcOsEUlvpmc8bB817ni8vg/o.jpg", "is_closed": false, "url": "https://www.yelp.com/biz/tanarah-luxe-floral-little-rock?adjust_creative=_XtPN5sB9p2gFalQqwrzYQ&utm_campaign=yelp_api_v3&utm_medium=api_v3_business_search&utm_source=_XtPN5sB9p2gFalQqwrzYQ", "review_count": 4, "categories": [{"alias": "florists", "title": "Florists"}, {"alias": "floraldesigners", "title": "Floral Designers"}], "rating": 5.0, "coordinates": {"latitude": 34.7554867, "longitude": -92.2974461}, "transactions": [], "location": {"address1": "2326 Cantrell Rd", "address2": null, "address3": null, "city": "Little Rock", "zip_code": "72202", "country": "US", "state": "AR", "display_address": ["2326 Cantrell Rd", "Little Rock, AR 72202"]}, "phone": "+15013721400", "display_phone": "(501) 372-1400", "distance": 5543.150602144889}, {"id": "tDSgSU7mLVBt1S1boYCKIw", "alias": "belks-department-store-little-rock-3", "name": "Belks Department Store", "image_url": "https://s3-media1.fl.yelpcdn.com/bphoto/F6iHT-KDyx9pgkPmlmxiFQ/o.jpg", "is_closed": false, "url": "https://www.yelp.com/biz/belks-department-store-little-rock-3?adjust_creative=_XtPN5sB9p2gFalQqwrzYQ&utm_campaign=yelp_api_v3&utm_medium=api_v3_business_search&utm_source=_XtPN5sB9p2gFalQqwrzYQ", "review_count": 13, "categories": [{"alias": "deptstores", "title": "Department Stores"}, {"alias": "jewelry", "title": "Jewelry"}, {"alias": "womenscloth", "title": "Women's Clothing"}], "rating": 2.5, "coordinates": {"latitude": 34.792299, "longitude": -92.402552}, "transactions": [], "price": "$$", "location": {"address1": "11525 Cantrell Rd", "address2": "Ste 500", "address3": null, "city": "Little Rock", "zip_code": "72212", "country": "US", "state": "AR", "display_address": ["11525 Cantrell Rd", "Ste 500", "Little Rock, AR 72212"]}, "phone": "+15019076200", "display_phone": "(501) 907-6200", "distance": 6455.75087666921}, {"id": "uaOJ1bfwmaRdA7RggRSErA", "alias": "robersons-fine-jewelry-and-watches-little-rock", "name": "Roberson's Fine Jewelry & Watches", "image_url": "https://s3-media4.fl.yelpcdn.com/bphoto/yOSM2BRi91SZk3wDKxEzdQ/o.jpg", "is_closed": false, "url": "https://www.yelp.com/biz/robersons-fine-jewelry-and-watches-little-rock?adjust_creative=_XtPN5sB9p2gFalQqwrzYQ&utm_campaign=yelp_api_v3&utm_medium=api_v3_business_search&utm_source=_XtPN5sB9p2gFalQqwrzYQ", "review_count": 4, "categories": [{"alias": "jewelry", "title": "Jewelry"}], "rating": 4.0, "coordinates": {"latitude": 34.7931291, "longitude": -92.4017894}, "transactions": [], "location": {"address1": "11525 Cantrell Rd", "address2": "Ste 703", "address3": "", "city": "Little Rock", "zip_code": "72212", "country": "US", "state": "AR", "display_address": ["11525 Cantrell Rd", "Ste 703", "Little Rock, AR 72212"]}, "phone": "+15016649000", "display_phone": "(501) 664-9000", "distance": 6481.496878527877}, {"id": "QfB1l0OLx1Nzge8ZwUDfZA", "alias": "ellis-jewelers-north-little-rock", "name": "Ellis Jewelers", "image_url": "https://s3-media1.fl.yelpcdn.com/bphoto/oI_76MrggXmg-KRJp8sMzQ/o.jpg", "is_closed": false, "url": "https://www.yelp.com/biz/ellis-jewelers-north-little-rock?adjust_creative=_XtPN5sB9p2gFalQqwrzYQ&utm_campaign=yelp_api_v3&utm_medium=api_v3_business_search&utm_source=_XtPN5sB9p2gFalQqwrzYQ", "review_count": 7, "categories": [{"alias": "jewelry", "title": "Jewelry"}, {"alias": "jewelryrepair", "title": "Jewelry Repair"}, {"alias": "watch_repair", "title": "Watch Repair"}], "rating": 4.5, "coordinates": {"latitude": 34.795309214719, "longitude": -92.2306270894104}, "transactions": [], "location": {"address1": "2927 Lakewood Village Dr", "address2": "", "address3": "", "city": "North Little Rock", "zip_code": "72116", "country": "US", "state": "AR", "display_address": ["2927 Lakewood Village Dr", "North Little Rock, AR 72116"]}, "phone": "+15017537267", "display_phone": "(501) 753-7267", "distance": 12639.33978829155}, {"id": "nzgef-CHzm0KeFwdpQ_9AA", "alias": "art-outfitters-little-rock", "name": "ART Outfitters", "image_url": "https://s3-media4.fl.yelpcdn.com/bphoto/fjjrLvHDYL631v9pwAEZnQ/o.jpg", "is_closed": false, "url": "https://www.yelp.com/biz/art-outfitters-little-rock?adjust_creative=_XtPN5sB9p2gFalQqwrzYQ&utm_campaign=yelp_api_v3&utm_medium=api_v3_business_search&utm_source=_XtPN5sB9p2gFalQqwrzYQ", "review_count": 10, "categories": [{"alias": "artsupplies", "title": "Art Supplies"}], "rating": 5.0, "coordinates": {"latitude": 34.74332, "longitude": -92.28175}, "transactions": [], "location": {"address1": "917 W 7th St", "address2": "", "address3": "", "city": "Little Rock", "zip_code": "72201", "country": "US", "state": "AR", "display_address": ["917 W 7th St", "Little Rock, AR 72201"]}, "phone": "+15013744323", "display_phone": "(501) 374-4323", "distance": 6856.66867627088}, {"id": "whltDpIAWQVmtGcpu38Mow", "alias": "aj-monogramming-north-little-rock-2", "name": "AJ Monogramming", "image_url": "https://s3-media2.fl.yelpcdn.com/bphoto/iQzOMcHS6xJSrlv5CPg-4g/o.jpg", "is_closed": false, "url": "https://www.yelp.com/biz/aj-monogramming-north-little-rock-2?adjust_creative=_XtPN5sB9p2gFalQqwrzYQ&utm_campaign=yelp_api_v3&utm_medium=api_v3_business_search&utm_source=_XtPN5sB9p2gFalQqwrzYQ", "review_count": 2, "categories": [{"alias": "embroideryandcrochet", "title": "Embroidery & Crochet"}], "rating": 5.0, "coordinates": {"latitude": 34.79014, "longitude": -92.2597399}, "transactions": [], "location": {"address1": "105 E H Ave", "address2": "", "address3": "", "city": "North Little Rock", "zip_code": "72116", "country": "US", "state": "AR", "display_address": ["105 E H Ave", "North Little Rock, AR 72116"]}, "phone": "+15018125839", "display_phone": "(501) 812-5839", "distance": 9997.871403639589}, {"id": "cMWFNQVkp5d4JBgwypLPDw", "alias": "the-wonder-place-little-rock", "name": "The Wonder Place", "image_url": "https://s3-media2.fl.yelpcdn.com/bphoto/-x7rPl50Hi3oFtmUgLnWJQ/o.jpg", "is_closed": false, "url": "https://www.yelp.com/biz/the-wonder-place-little-rock?adjust_creative=_XtPN5sB9p2gFalQqwrzYQ&utm_campaign=yelp_api_v3&utm_medium=api_v3_business_search&utm_source=_XtPN5sB9p2gFalQqwrzYQ", "review_count": 18, "categories": [{"alias": "eventplanning", "title": "Party & Event Planning"}, {"alias": "toys", "title": "Toy Stores"}, {"alias": "kids_activities", "title": "Kids Activities"}], "rating": 4.5, "coordinates": {"latitude": 34.765145899046566, "longitude": -92.38859689223388}, "transactions": [], "price": "$$", "location": {"address1": "10301 N Rodney Parham Rd", "address2": "Ste E2", "address3": null, "city": "Little Rock", "zip_code": "72227", "country": "US", "state": "AR", "display_address": ["10301 N Rodney Parham Rd", "Ste E2", "Little Rock, AR 72227"]}, "phone": "+15012254050", "display_phone": "(501) 225-4050", "distance": 3479.7157024533326}, {"id": "iUTXx07P0iNVwiOuE2Xt1w", "alias": "the-crown-shop-little-rock-2", "name": "The Crown Shop", "image_url": "https://s3-media2.fl.yelpcdn.com/bphoto/7H25iAkD05KBAxX5prnjrQ/o.jpg", "is_closed": false, "url": "https://www.yelp.com/biz/the-crown-shop-little-rock-2?adjust_creative=_XtPN5sB9p2gFalQqwrzYQ&utm_campaign=yelp_api_v3&utm_medium=api_v3_business_search&utm_source=_XtPN5sB9p2gFalQqwrzYQ", "review_count": 10, "categories": [{"alias": "stationery", "title": "Cards & Stationery"}, {"alias": "giftshops", "title": "Gift Shops"}, {"alias": "engraving", "title": "Engraving"}], "rating": 4.5, "coordinates": {"latitude": 34.7708066832182, "longitude": -92.3915394345468}, "transactions": [], "location": {"address1": "10700 N Rodney Parham Rd", "address2": "Ste B1", "address3": "", "city": "Little Rock", "zip_code": "72212", "country": "US", "state": "AR", "display_address": ["10700 N Rodney Parham Rd", "Ste B1", "Little Rock, AR 72212"]}, "phone": "+15012278442", "display_phone": "(501) 227-8442", "distance": 4064.4971710662867}, {"id": "I0VUPSz6OVH1-3tcfSmnyA", "alias": "catering-to-you-little-rock", "name": "Catering To You", "image_url": "https://s3-media4.fl.yelpcdn.com/bphoto/c3UZBF8JRGQ024bn3ik4Ow/o.jpg", "is_closed": false, "url": "https://www.yelp.com/biz/catering-to-you-little-rock?adjust_creative=_XtPN5sB9p2gFalQqwrzYQ&utm_campaign=yelp_api_v3&utm_medium=api_v3_business_search&utm_source=_XtPN5sB9p2gFalQqwrzYQ", "review_count": 10, "categories": [{"alias": "catering", "title": "Caterers"}, {"alias": "giftshops", "title": "Gift Shops"}, {"alias": "homedecor", "title": "Home Decor"}], "rating": 2.5, "coordinates": {"latitude": 34.77641, "longitude": -92.36492}, "transactions": ["delivery"], "price": "$$", "location": {"address1": "8121 Cantrell Rd", "address2": "", "address3": "", "city": "Little Rock", "zip_code": "72227", "country": "US", "state": "AR", "display_address": ["8121 Cantrell Rd", "Little Rock, AR 72227"]}, "phone": "+15016149030", "display_phone": "(501) 614-9030", "distance": 3227.6916784517375}, {"id": "oCFhMmwNJMuJHBfyZDv0Rw", "alias": "m2-gallery-little-rock", "name": "M2 Gallery", "image_url": "https://s3-media4.fl.yelpcdn.com/bphoto/DlbFlih_9CLBHHUX2DQ2TA/o.jpg", "is_closed": false, "url": "https://www.yelp.com/biz/m2-gallery-little-rock?adjust_creative=_XtPN5sB9p2gFalQqwrzYQ&utm_campaign=yelp_api_v3&utm_medium=api_v3_business_search&utm_source=_XtPN5sB9p2gFalQqwrzYQ", "review_count": 4, "categories": [{"alias": "galleries", "title": "Art Galleries"}, {"alias": "framing", "title": "Framing"}], "rating": 5.0, "coordinates": {"latitude": 34.7362019, "longitude": -92.2729591}, "transactions": [], "price": "$$", "location": {"address1": "1300 Main St", "address2": null, "address3": null, "city": "Little Rock", "zip_code": "72212", "country": "US", "state": "AR", "display_address": ["1300 Main St", "Little Rock, AR 72212"]}, "phone": "+15012256257", "display_phone": "(501) 225-6257", "distance": 7755.217035309535}, {"id": "mNg9Gu8cFC0gfOsGqEeCMQ", "alias": "beyond-cotton-little-rock", "name": "Beyond Cotton", "image_url": "https://s3-media1.fl.yelpcdn.com/bphoto/gVHeVCkHr_0fDu9XGyC-fw/o.jpg", "is_closed": false, "url": "https://www.yelp.com/biz/beyond-cotton-little-rock?adjust_creative=_XtPN5sB9p2gFalQqwrzYQ&utm_campaign=yelp_api_v3&utm_medium=api_v3_business_search&utm_source=_XtPN5sB9p2gFalQqwrzYQ", "review_count": 4, "categories": [{"alias": "jewelry", "title": "Jewelry"}, {"alias": "womenscloth", "title": "Women's Clothing"}, {"alias": "accessories", "title": "Accessories"}], "rating": 5.0, "coordinates": {"latitude": 34.772854, "longitude": -92.398361}, "transactions": [], "location": {"address1": "11220 N Rodney Parham Rd", "address2": "Ste 10", "address3": "", "city": "Little Rock", "zip_code": "72212", "country": "US", "state": "AR", "display_address": ["11220 N Rodney Parham Rd", "Ste 10", "Little Rock, AR 72212"]}, "phone": "+15012219195", "display_phone": "(501) 221-9195", "distance": 4699.544325908927}, {"id": "MXSQmpc_D3BgFJRs44qFqw", "alias": "stitching-post-little-rock", "name": "Stitching Post", "image_url": "https://s3-media2.fl.yelpcdn.com/bphoto/uxap8DWLLmbCGa2zrUD-Aw/o.jpg", "is_closed": false, "url": "https://www.yelp.com/biz/stitching-post-little-rock?adjust_creative=_XtPN5sB9p2gFalQqwrzYQ&utm_campaign=yelp_api_v3&utm_medium=api_v3_business_search&utm_source=_XtPN5sB9p2gFalQqwrzYQ", "review_count": 5, "categories": [{"alias": "hobbyshops", "title": "Hobby Shops"}], "rating": 4.5, "coordinates": {"latitude": 34.7672119, "longitude": -92.400501}, "transactions": [], "price": "$$", "location": {"address1": "1501 Macon Dr", "address2": "", "address3": "", "city": "Little Rock", "zip_code": "72211", "country": "US", "state": "AR", "display_address": ["1501 Macon Dr", "Little Rock, AR 72211"]}, "phone": "+15012270288", "display_phone": "(501) 227-0288", "distance": 4535.7423636915855}, {"id": "WvI3f9qxKTdg5XvAmziejA", "alias": "cabbage-rose-little-rock-3", "name": "Cabbage Rose", "image_url": "https://s3-media4.fl.yelpcdn.com/bphoto/YlfCmrUB6dL1zNt4d7goKg/o.jpg", "is_closed": false, "url": "https://www.yelp.com/biz/cabbage-rose-little-rock-3?adjust_creative=_XtPN5sB9p2gFalQqwrzYQ&utm_campaign=yelp_api_v3&utm_medium=api_v3_business_search&utm_source=_XtPN5sB9p2gFalQqwrzYQ", "review_count": 8, "categories": [{"alias": "florists", "title": "Florists"}, {"alias": "wedding_planning", "title": "Wedding Planning"}], "rating": 4.5, "coordinates": {"latitude": 34.772867, "longitude": -92.3983425}, "transactions": [], "location": {"address1": "11220 N Rodney Parham Rd", "address2": "Ste 9", "address3": "", "city": "Little Rock", "zip_code": "72212", "country": "US", "state": "AR", "display_address": ["11220 N Rodney Parham Rd", "Ste 9", "Little Rock, AR 72212"]}, "phone": "+15016644042", "display_phone": "(501) 664-4042", "distance": 4699.014524522311}, {"id": "GVXP0Qg5HvqES8zsSoCk8g", "alias": "arkansas-arts-center-little-rock", "name": "Arkansas Arts Center", "image_url": "https://s3-media3.fl.yelpcdn.com/bphoto/B1qVIWqKBc9xOBKMijqs7Q/o.jpg", "is_closed": false, "url": "https://www.yelp.com/biz/arkansas-arts-center-little-rock?adjust_creative=_XtPN5sB9p2gFalQqwrzYQ&utm_campaign=yelp_api_v3&utm_medium=api_v3_business_search&utm_source=_XtPN5sB9p2gFalQqwrzYQ", "review_count": 13, "categories": [{"alias": "galleries", "title": "Art Galleries"}, {"alias": "artmuseums", "title": "Art Museums"}], "rating": 4.5, "coordinates": {"latitude": 34.7394351, "longitude": -92.2670275}, "transactions": [], "price": "$", "location": {"address1": "501 E 9th St", "address2": "", "address3": "", "city": "Little Rock", "zip_code": "72202", "country": "US", "state": "AR", "display_address": ["501 E 9th St", "Little Rock, AR 72202"]}, "phone": "+15013724000", "display_phone": "(501) 372-4000", "distance": 8316.423980674379}, {"id": "p1hkwpbxh8qKBFpu4FDK7g", "alias": "frances-flower-shop-and-flower-delivery-little-rock", "name": "Frances Flower Shop & Flower Delivery", "image_url": "https://s3-media2.fl.yelpcdn.com/bphoto/ximXXvakWXQg1-vCryx9HQ/o.jpg", "is_closed": false, "url": "https://www.yelp.com/biz/frances-flower-shop-and-flower-delivery-little-rock?adjust_creative=_XtPN5sB9p2gFalQqwrzYQ&utm_campaign=yelp_api_v3&utm_medium=api_v3_business_search&utm_source=_XtPN5sB9p2gFalQqwrzYQ", "review_count": 15, "categories": [{"alias": "florists", "title": "Florists"}], "rating": 5.0, "coordinates": {"latitude": 34.7462634541874, "longitude": -92.2851093113422}, "transactions": [], "price": "$$", "location": {"address1": "1222 W Capitol Ave", "address2": "", "address3": "", "city": "Little Rock", "zip_code": "72201", "country": "US", "state": "AR", "display_address": ["1222 W Capitol Ave", "Little Rock, AR 72201"]}, "phone": "+15013722203", "display_phone": "(501) 372-2203", "distance": 6532.418328175644}, {"id": "9_6xKvGxeCCkLDv4ZFd1dQ", "alias": "joann-fabric-and-crafts-little-rock", "name": "JOANN Fabric and Crafts", "image_url": "https://s3-media4.fl.yelpcdn.com/bphoto/BnZ_M1ex2wXEIPky7plhQA/o.jpg", "is_closed": false, "url": "https://www.yelp.com/biz/joann-fabric-and-crafts-little-rock?adjust_creative=_XtPN5sB9p2gFalQqwrzYQ&utm_campaign=yelp_api_v3&utm_medium=api_v3_business_search&utm_source=_XtPN5sB9p2gFalQqwrzYQ", "review_count": 5, "categories": [{"alias": "homedecor", "title": "Home Decor"}, {"alias": "fabricstores", "title": "Fabric Stores"}, {"alias": "artsupplies", "title": "Art Supplies"}], "rating": 2.5, "coordinates": {"latitude": 34.7307048, "longitude": -92.39946}, "transactions": [], "price": "$$$", "location": {"address1": "2616 S Shackleford Rd", "address2": "Ste A", "address3": "", "city": "Little Rock", "zip_code": "72205", "country": "US", "state": "AR", "display_address": ["2616 S Shackleford Rd", "Ste A", "Little Rock, AR 72205"]}, "phone": "+15012270646", "display_phone": "(501) 227-0646", "distance": 4376.016033443058}, {"id": "GcZY_3jQrYyd31jGM2pv1A", "alias": "singer-sewing-machines-little-rock", "name": "Singer Sewing Machines", "image_url": "", "is_closed": false, "url": "https://www.yelp.com/biz/singer-sewing-machines-little-rock?adjust_creative=_XtPN5sB9p2gFalQqwrzYQ&utm_campaign=yelp_api_v3&utm_medium=api_v3_business_search&utm_source=_XtPN5sB9p2gFalQqwrzYQ", "review_count": 1, "categories": [{"alias": "fabricstores", "title": "Fabric Stores"}], "rating": 1.0, "coordinates": {"latitude": 34.7363314032555, "longitude": -92.2724566608667}, "transactions": [], "location": {"address1": "100 E 13th St", "address2": "", "address3": "", "city": "Little Rock", "zip_code": "72202", "country": "US", "state": "AR", "display_address": ["100 E 13th St", "Little Rock, AR 72202"]}, "phone": "+15017536050", "display_phone": "(501) 753-6050", "distance": 7781.70352251233}, {"id": "PEydAo8OUmQAJj6Evlo5DA", "alias": "floral-express-flowers-and-events-little-rock", "name": "Floral Express Flowers & Events", "image_url": "https://s3-media2.fl.yelpcdn.com/bphoto/rAofNnVwHnhwwGJoedDA4w/o.jpg", "is_closed": false, "url": "https://www.yelp.com/biz/floral-express-flowers-and-events-little-rock?adjust_creative=_XtPN5sB9p2gFalQqwrzYQ&utm_campaign=yelp_api_v3&utm_medium=api_v3_business_search&utm_source=_XtPN5sB9p2gFalQqwrzYQ", "review_count": 9, "categories": [{"alias": "florists", "title": "Florists"}, {"alias": "floraldesigners", "title": "Floral Designers"}, {"alias": "eventplanning", "title": "Party & Event Planning"}], "rating": 4.5, "coordinates": {"latitude": 34.7536571, "longitude": -92.4053954}, "transactions": [], "price": "$$", "location": {"address1": "11601 W Markham St Bowman Rd", "address2": "", "address3": "", "city": "Little Rock", "zip_code": "72211", "country": "US", "state": "AR", "display_address": ["11601 W Markham St Bowman Rd", "Little Rock, AR 72211"]}, "phone": "+15016663196", "display_phone": "(501) 666-3196", "distance": 4501.953131961657}, {"id": "9FqjVyPxlBQH_uBm4dVd3g", "alias": "tipton-and-hurst-little-rock-8", "name": "Tipton & Hurst", "image_url": "https://s3-media3.fl.yelpcdn.com/bphoto/0yzWGpygEUVtTMmQQUYjFg/o.jpg", "is_closed": false, "url": "https://www.yelp.com/biz/tipton-and-hurst-little-rock-8?adjust_creative=_XtPN5sB9p2gFalQqwrzYQ&utm_campaign=yelp_api_v3&utm_medium=api_v3_business_search&utm_source=_XtPN5sB9p2gFalQqwrzYQ", "review_count": 35, "categories": [{"alias": "florists", "title": "Florists"}, {"alias": "giftshops", "title": "Gift Shops"}, {"alias": "floraldesigners", "title": "Floral Designers"}], "rating": 4.5, "coordinates": {"latitude": 34.768587, "longitude": -92.339065}, "transactions": [], "price": "$$$", "location": {"address1": "1801 N Grant St", "address2": "", "address3": "", "city": "Little Rock", "zip_code": "72207", "country": "US", "state": "AR", "display_address": ["1801 N Grant St", "Little Rock, AR 72207"]}, "phone": "+15016663333", "display_phone": "(501) 666-3333", "distance": 2771.668881944649}, {"id": "qyvy7KFzwaE3pN71-lzYwQ", "alias": "eggshells-kitchen-company-little-rock", "name": "Eggshells Kitchen Company", "image_url": "https://s3-media1.fl.yelpcdn.com/bphoto/mgJopmgWPO85Ulnej3bgAA/o.jpg", "is_closed": false, "url": "https://www.yelp.com/biz/eggshells-kitchen-company-little-rock?adjust_creative=_XtPN5sB9p2gFalQqwrzYQ&utm_campaign=yelp_api_v3&utm_medium=api_v3_business_search&utm_source=_XtPN5sB9p2gFalQqwrzYQ", "review_count": 12, "categories": [{"alias": "kitchenandbath", "title": "Kitchen & Bath"}, {"alias": "cookingclasses", "title": "Cooking Classes"}], "rating": 5.0, "coordinates": {"latitude": 34.7699799, "longitude": -92.33527}, "transactions": [], "price": "$$", "location": {"address1": "5501 Kavanaugh Blvd", "address2": "Ste K", "address3": null, "city": "Little Rock", "zip_code": "72207", "country": "US", "state": "AR", "display_address": ["5501 Kavanaugh Blvd", "Ste K", "Little Rock, AR 72207"]}, "phone": "+15016646900", "display_phone": "(501) 664-6900", "distance": 3105.016602565005}, {"id": "zEqE4M5eCwUUncro_DEW3g", "alias": "pyramid-art-books-and-custom-framing-little-rock-3", "name": "Pyramid Art Books & Custom Framing", "image_url": "https://s3-media2.fl.yelpcdn.com/bphoto/jSFxhGx1Y-b-O983ZFHnPA/o.jpg", "is_closed": false, "url": "https://www.yelp.com/biz/pyramid-art-books-and-custom-framing-little-rock-3?adjust_creative=_XtPN5sB9p2gFalQqwrzYQ&utm_campaign=yelp_api_v3&utm_medium=api_v3_business_search&utm_source=_XtPN5sB9p2gFalQqwrzYQ", "review_count": 3, "categories": [{"alias": "galleries", "title": "Art Galleries"}, {"alias": "bookstores", "title": "Bookstores"}, {"alias": "framing", "title": "Framing"}], "rating": 5.0, "coordinates": {"latitude": 34.73165, "longitude": -92.28497}, "transactions": [], "location": {"address1": "1001 Wright Ave", "address2": "", "address3": "", "city": "Little Rock", "zip_code": "72206", "country": "US", "state": "AR", "display_address": ["1001 Wright Ave", "Little Rock, AR 72206"]}, "phone": "+15013725824", "display_phone": "(501) 372-5824", "distance": 6790.713499263268}, {"id": "-XOiWrudqreNFFlz2HDeAg", "alias": "tipton-and-hurst-florist-north-little-rock-north-little-rock", "name": "Tipton & Hurst Florist - North Little Rock", "image_url": "https://s3-media4.fl.yelpcdn.com/bphoto/M7Znq-PnM6Y06cMiZK2dRg/o.jpg", "is_closed": false, "url": "https://www.yelp.com/biz/tipton-and-hurst-florist-north-little-rock-north-little-rock?adjust_creative=_XtPN5sB9p2gFalQqwrzYQ&utm_campaign=yelp_api_v3&utm_medium=api_v3_business_search&utm_source=_XtPN5sB9p2gFalQqwrzYQ", "review_count": 3, "categories": [{"alias": "florists", "title": "Florists"}, {"alias": "wedding_planning", "title": "Wedding Planning"}, {"alias": "giftshops", "title": "Gift Shops"}], "rating": 2.5, "coordinates": {"latitude": 34.797286, "longitude": -92.234642}, "transactions": [], "price": "$$$", "location": {"address1": "4583 Fairway Ave", "address2": "", "address3": "", "city": "North Little Rock", "zip_code": "72116", "country": "US", "state": "AR", "display_address": ["4583 Fairway Ave", "North Little Rock, AR 72116"]}, "phone": "+15017530709", "display_phone": "(501) 753-0709", "distance": 12398.699594329322}, {"id": "IQv-iROKYAyIujf3v-xvtQ", "alias": "hodge-podge-north-little-rock", "name": "Hodge Podge", "image_url": "https://s3-media2.fl.yelpcdn.com/bphoto/92a8Rpe-C1mlh_FNIr2Atg/o.jpg", "is_closed": false, "url": "https://www.yelp.com/biz/hodge-podge-north-little-rock?adjust_creative=_XtPN5sB9p2gFalQqwrzYQ&utm_campaign=yelp_api_v3&utm_medium=api_v3_business_search&utm_source=_XtPN5sB9p2gFalQqwrzYQ", "review_count": 4, "categories": [{"alias": "florists", "title": "Florists"}], "rating": 5.0, "coordinates": {"latitude": 34.774426, "longitude": -92.2672227}, "transactions": [], "location": {"address1": "2101 Main St", "address2": "", "address3": "", "city": "North Little Rock", "zip_code": "72114", "country": "US", "state": "AR", "display_address": ["2101 Main St", "North Little Rock, AR 72114"]}, "phone": "+15013726501", "display_phone": "(501) 372-6501", "distance": 8666.645888798814}, {"id": "4viPmaRZe4p1v9l1h4SNjw", "alias": "buds-n-bows-north-little-rock", "name": "Buds N Bows", "image_url": "https://s3-media3.fl.yelpcdn.com/bphoto/mGWXTtlUxlkiy0Wf7_XCrA/o.jpg", "is_closed": false, "url": "https://www.yelp.com/biz/buds-n-bows-north-little-rock?adjust_creative=_XtPN5sB9p2gFalQqwrzYQ&utm_campaign=yelp_api_v3&utm_medium=api_v3_business_search&utm_source=_XtPN5sB9p2gFalQqwrzYQ", "review_count": 14, "categories": [{"alias": "florists", "title": "Florists"}], "rating": 4.0, "coordinates": {"latitude": 34.787651, "longitude": -92.27717}, "transactions": [], "price": "$", "location": {"address1": "3424 Camp Robinson Rd", "address2": "", "address3": "", "city": "North Little Rock", "zip_code": "72118", "country": "US", "state": "AR", "display_address": ["3424 Camp Robinson Rd", "North Little Rock, AR 72118"]}, "phone": "+15017584520", "display_phone": "(501) 758-4520", "distance": 8475.340223570769}, {"id": "oQyfaB4T4lFcLXJqi5CgSA", "alias": "kroger-food-stores-north-little-rock-6", "name": "Kroger Food Stores", "image_url": "https://s3-media4.fl.yelpcdn.com/bphoto/BYAi6zkR50bSyFd56e82sA/o.jpg", "is_closed": false, "url": "https://www.yelp.com/biz/kroger-food-stores-north-little-rock-6?adjust_creative=_XtPN5sB9p2gFalQqwrzYQ&utm_campaign=yelp_api_v3&utm_medium=api_v3_business_search&utm_source=_XtPN5sB9p2gFalQqwrzYQ", "review_count": 7, "categories": [{"alias": "drugstores", "title": "Drugstores"}, {"alias": "florists", "title": "Florists"}, {"alias": "grocery", "title": "Grocery"}], "rating": 2.5, "coordinates": {"latitude": 34.79505878331734, "longitude": -92.27266739996836}, "transactions": [], "price": "$", "location": {"address1": "4401 Camp Robinson Rd", "address2": null, "address3": null, "city": "North Little Rock", "zip_code": "72118", "country": "US", "state": "AR", "display_address": ["4401 Camp Robinson Rd", "North Little Rock, AR 72118"]}, "phone": "+15017586858", "display_phone": "(501) 758-6858", "distance": 9266.30078989975}, {"id": "V27l8VVfS4mzH-HkO730tg", "alias": "hogmans-gameday-superstore-north-little-rock", "name": "Hogman's Gameday Superstore", "image_url": "https://s3-media3.fl.yelpcdn.com/bphoto/lou_H-sgUTNVNQjlnUMV3g/o.jpg", "is_closed": false, "url": "https://www.yelp.com/biz/hogmans-gameday-superstore-north-little-rock?adjust_creative=_XtPN5sB9p2gFalQqwrzYQ&utm_campaign=yelp_api_v3&utm_medium=api_v3_business_search&utm_source=_XtPN5sB9p2gFalQqwrzYQ", "review_count": 2, "categories": [{"alias": "giftshops", "title": "Gift Shops"}, {"alias": "sportswear", "title": "Sports Wear"}, {"alias": "sportsteams", "title": "Professional Sports Teams"}], "rating": 3.0, "coordinates": {"latitude": 34.80348, "longitude": -92.25311}, "transactions": [], "location": {"address1": "5308 Jfk Blvd", "address2": "", "address3": "", "city": "North Little Rock", "zip_code": "72116", "country": "US", "state": "AR", "display_address": ["5308 Jfk Blvd", "North Little Rock, AR 72116"]}, "phone": "+15017711018", "display_phone": "(501) 771-1018", "distance": 11268.070041481009}, {"id": "7Va8jFYdGe2s-EmBOyRaBA", "alias": "joann-fabrics-and-crafts-north-little-rock-14", "name": "JOANN Fabrics and Crafts", "image_url": "https://s3-media2.fl.yelpcdn.com/bphoto/jzTzqvagnaZMEv2ZeAWgGQ/o.jpg", "is_closed": false, "url": "https://www.yelp.com/biz/joann-fabrics-and-crafts-north-little-rock-14?adjust_creative=_XtPN5sB9p2gFalQqwrzYQ&utm_campaign=yelp_api_v3&utm_medium=api_v3_business_search&utm_source=_XtPN5sB9p2gFalQqwrzYQ", "review_count": 4, "categories": [{"alias": "homedecor", "title": "Home Decor"}, {"alias": "fabricstores", "title": "Fabric Stores"}, {"alias": "artsupplies", "title": "Art Supplies"}], "rating": 2.0, "coordinates": {"latitude": 34.796216994682545, "longitude": -92.2338911}, "transactions": [], "location": {"address1": "2637 Lakewood Village Dr", "address2": null, "address3": "", "city": "No Little Rock", "zip_code": "72116", "country": "US", "state": "AR", "display_address": ["2637 Lakewood Village Dr", "No Little Rock, AR 72116"]}, "phone": "+15017712330", "display_phone": "(501) 771-2330", "distance": 12411.646190844183}, {"id": "VERa82PodJDt6nYyO6Xjqg", "alias": "the-humble-crumb-sherwood", "name": "The Humble Crumb", "image_url": "https://s3-media1.fl.yelpcdn.com/bphoto/hWk7-fyzS-hVAeh9iLXxqg/o.jpg", "is_closed": false, "url": "https://www.yelp.com/biz/the-humble-crumb-sherwood?adjust_creative=_XtPN5sB9p2gFalQqwrzYQ&utm_campaign=yelp_api_v3&utm_medium=api_v3_business_search&utm_source=_XtPN5sB9p2gFalQqwrzYQ", "review_count": 33, "categories": [{"alias": "bakeries", "title": "Bakeries"}, {"alias": "coffee", "title": "Coffee & Tea"}, {"alias": "giftshops", "title": "Gift Shops"}], "rating": 5.0, "coordinates": {"latitude": 34.85569, "longitude": -92.22621}, "transactions": ["delivery"], "location": {"address1": "110 Loop Rd", "address2": "", "address3": null, "city": "Sherwood", "zip_code": "72120", "country": "US", "state": "AR", "display_address": ["110 Loop Rd", "Sherwood, AR 72120"]}, "phone": "+15012514186", "display_phone": "(501) 251-4186", "distance": 16866.132953434037}, {"id": "JfgOXoQlPo9gdhwGL3ZCtA", "alias": "bakers-fine-jewelry-bryant-2", "name": "Baker's Fine Jewelry", "image_url": "https://s3-media2.fl.yelpcdn.com/bphoto/pZ_QBmtbBTe1G2rP2qnJjg/o.jpg", "is_closed": false, "url": "https://www.yelp.com/biz/bakers-fine-jewelry-bryant-2?adjust_creative=_XtPN5sB9p2gFalQqwrzYQ&utm_campaign=yelp_api_v3&utm_medium=api_v3_business_search&utm_source=_XtPN5sB9p2gFalQqwrzYQ", "review_count": 6, "categories": [{"alias": "jewelry", "title": "Jewelry"}, {"alias": "goldbuyers", "title": "Gold Buyers"}], "rating": 3.5, "coordinates": {"latitude": 34.6230354309082, "longitude": -92.5014953613281}, "transactions": [], "location": {"address1": "612 Office Park Dr", "address2": "Ste 1", "address3": null, "city": "Bryant", "zip_code": "72022", "country": "US", "state": "AR", "display_address": ["612 Office Park Dr", "Ste 1", "Bryant, AR 72022"]}, "phone": "+15018479130", "display_phone": "(501) 847-9130", "distance": 19207.84309864203}, {"id": "yu3znvRNCymrOEO_Kt3Imw", "alias": "party-city-little-rock", "name": "Party City", "image_url": "https://s3-media2.fl.yelpcdn.com/bphoto/wTL0BMQFW0oZhSSqmqBR9Q/o.jpg", "is_closed": false, "url": "https://www.yelp.com/biz/party-city-little-rock?adjust_creative=_XtPN5sB9p2gFalQqwrzYQ&utm_campaign=yelp_api_v3&utm_medium=api_v3_business_search&utm_source=_XtPN5sB9p2gFalQqwrzYQ", "review_count": 16, "categories": [{"alias": "partysupplies", "title": "Party Supplies"}, {"alias": "costumes", "title": "Costumes"}], "rating": 2.0, "coordinates": {"latitude": 34.7721214294434, "longitude": -92.3988037109375}, "transactions": [], "price": "$$", "location": {"address1": "11218 N Rodney Parham Rd", "address2": "", "address3": "", "city": "Little Rock", "zip_code": "72212", "country": "US", "state": "AR", "display_address": ["11218 N Rodney Parham Rd", "Little Rock, AR 72212"]}, "phone": "+15012234929", "display_phone": "(501) 223-4929", "distance": 4695.693895679779}, {"id": "gqITtQqdFGgB9Hi4uD5plw", "alias": "fast-delivery-furniture-movers-bryant", "name": "Fast Delivery Furniture Movers", "image_url": "", "is_closed": false, "url": "https://www.yelp.com/biz/fast-delivery-furniture-movers-bryant?adjust_creative=_XtPN5sB9p2gFalQqwrzYQ&utm_campaign=yelp_api_v3&utm_medium=api_v3_business_search&utm_source=_XtPN5sB9p2gFalQqwrzYQ", "review_count": 2, "categories": [], "rating": 1.0, "coordinates": {"latitude": 34.6114730834961, "longitude": -92.4938278198242}, "transactions": [], "location": {"address1": "201 Todd Ln", "address2": null, "address3": null, "city": "Bryant", "zip_code": "72022", "country": "US", "state": "AR", "display_address": ["201 Todd Ln", "Bryant, AR 72022"]}, "phone": "+15015622422", "display_phone": "(501) 562-2422", "distance": 19716.582681753174}, {"id": "tG3QlxIA_2jqB9cP1eSBSA", "alias": "edible-arrangements-little-rock", "name": "Edible Arrangements", "image_url": "https://s3-media3.fl.yelpcdn.com/bphoto/cvPWPfRxOMXoozR_A_e3_w/o.jpg", "is_closed": false, "url": "https://www.yelp.com/biz/edible-arrangements-little-rock?adjust_creative=_XtPN5sB9p2gFalQqwrzYQ&utm_campaign=yelp_api_v3&utm_medium=api_v3_business_search&utm_source=_XtPN5sB9p2gFalQqwrzYQ", "review_count": 13, "categories": [{"alias": "florists", "title": "Florists"}, {"alias": "giftshops", "title": "Gift Shops"}, {"alias": "chocolate", "title": "Chocolatiers & Shops"}], "rating": 1.5, "coordinates": {"latitude": 34.7465513920987, "longitude": -92.4012973562537}, "transactions": [], "location": {"address1": "11401 Financial Centre Pkwy", "address2": "Ste 104", "address3": null, "city": "Little Rock", "zip_code": "72211", "country": "US", "state": "AR", "display_address": ["11401 Financial Centre Pkwy", "Ste 104", "Little Rock, AR 72211"]}, "phone": "+15012256161", "display_phone": "(501) 225-6161", "distance": 4090.945882522299}, {"id": "9OfShwZDGG2eky9wWwufdQ", "alias": "lettas-flowers-and-gifts-bryant", "name": "Letta's Flowers And Gifts", "image_url": "https://s3-media2.fl.yelpcdn.com/bphoto/bC2jbE9rLr2vZ4kK2eQVrQ/o.jpg", "is_closed": false, "url": "https://www.yelp.com/biz/lettas-flowers-and-gifts-bryant?adjust_creative=_XtPN5sB9p2gFalQqwrzYQ&utm_campaign=yelp_api_v3&utm_medium=api_v3_business_search&utm_source=_XtPN5sB9p2gFalQqwrzYQ", "review_count": 4, "categories": [{"alias": "florists", "title": "Florists"}, {"alias": "giftshops", "title": "Gift Shops"}], "rating": 3.5, "coordinates": {"latitude": 34.6237825, "longitude": -92.50180008450084}, "transactions": [], "location": {"address1": "5403 Highway 5 N", "address2": "", "address3": "", "city": "Bryant", "zip_code": "72022", "country": "US", "state": "AR", "display_address": ["5403 Highway 5 N", "Bryant, AR 72022"]}, "phone": "+15018474600", "display_phone": "(501) 847-4600", "distance": 19177.09374418255}, {"id": "EALtM7ym-Eofk5NhUoTwWw", "alias": "interstate-animal-clinic-north-little-rock", "name": "Interstate Animal Clinic", "image_url": "https://s3-media1.fl.yelpcdn.com/bphoto/n91rU2TFP6VwTJeZ7VWHqg/o.jpg", "is_closed": false, "url": "https://www.yelp.com/biz/interstate-animal-clinic-north-little-rock?adjust_creative=_XtPN5sB9p2gFalQqwrzYQ&utm_campaign=yelp_api_v3&utm_medium=api_v3_business_search&utm_source=_XtPN5sB9p2gFalQqwrzYQ", "review_count": 7, "categories": [{"alias": "vet", "title": "Veterinarians"}, {"alias": "artsupplies", "title": "Art Supplies"}, {"alias": "petservices", "title": "Pet Services"}], "rating": 3.5, "coordinates": {"latitude": 34.8014791, "longitude": -92.215401}, "transactions": [], "location": {"address1": "5109 Warden Rd", "address2": null, "address3": null, "city": "North Little Rock", "zip_code": "72116", "country": "US", "state": "AR", "display_address": ["5109 Warden Rd", "North Little Rock, AR 72116"]}, "phone": "+15018125678", "display_phone": "(501) 812-5678", "distance": 14188.982178270448}, {"id": "70gJ9DmKsBXs1XKfUZ9EAA", "alias": "zales-jewelers-north-little-rock", "name": "Zales Jewelers", "image_url": "", "is_closed": false, "url": "https://www.yelp.com/biz/zales-jewelers-north-little-rock?adjust_creative=_XtPN5sB9p2gFalQqwrzYQ&utm_campaign=yelp_api_v3&utm_medium=api_v3_business_search&utm_source=_XtPN5sB9p2gFalQqwrzYQ", "review_count": 2, "categories": [{"alias": "jewelry", "title": "Jewelry"}], "rating": 3.0, "coordinates": {"latitude": 34.7885704, "longitude": -92.199173}, "transactions": [], "price": "$$$", "location": {"address1": "McCain Mall", "address2": "", "address3": "", "city": "North Little Rock", "zip_code": "72114", "country": "US", "state": "AR", "display_address": ["McCain Mall", "North Little Rock, AR 72114"]}, "phone": "+15017584265", "display_phone": "(501) 758-4265", "distance": 12927.863001586495}, {"id": "zJ85D3Nu9ocVvZcYwkya1g", "alias": "kroger-food-stores-england", "name": "Kroger Food Stores", "image_url": "", "is_closed": false, "url": "https://www.yelp.com/biz/kroger-food-stores-england?adjust_creative=_XtPN5sB9p2gFalQqwrzYQ&utm_campaign=yelp_api_v3&utm_medium=api_v3_business_search&utm_source=_XtPN5sB9p2gFalQqwrzYQ", "review_count": 1, "categories": [{"alias": "florists", "title": "Florists"}, {"alias": "drugstores", "title": "Drugstores"}], "rating": 5.0, "coordinates": {"latitude": 34.5448719, "longitude": -91.9569707}, "transactions": [], "location": {"address1": "301 Pine Bluff Hwy", "address2": null, "address3": null, "city": "England", "zip_code": "72046", "country": "US", "state": "AR", "display_address": ["301 Pine Bluff Hwy", "England, AR 72046"]}, "phone": "+15018422491", "display_phone": "(501) 842-2491", "distance": 43009.58913875616}, {"id": "xyxE4JztaJIh1niRTuPlDQ", "alias": "fairy-tale-floral-north-little-rock", "name": "Fairy Tale Floral", "image_url": "https://s3-media4.fl.yelpcdn.com/bphoto/FhxlzRmPO9AwEByz5N_oRw/o.jpg", "is_closed": false, "url": "https://www.yelp.com/biz/fairy-tale-floral-north-little-rock?adjust_creative=_XtPN5sB9p2gFalQqwrzYQ&utm_campaign=yelp_api_v3&utm_medium=api_v3_business_search&utm_source=_XtPN5sB9p2gFalQqwrzYQ", "review_count": 17, "categories": [{"alias": "florists", "title": "Florists"}], "rating": 2.0, "coordinates": {"latitude": 34.78577, "longitude": -92.26084}, "transactions": [], "price": "$$", "location": {"address1": "3321 John F Kennedy Blvd", "address2": "", "address3": "", "city": "North Little Rock", "zip_code": "72116", "country": "US", "state": "AR", "display_address": ["3321 John F Kennedy Blvd", "North Little Rock, AR 72116"]}, "phone": "+15017538393", "display_phone": "(501) 753-8393", "distance": 9677.451562652683}, {"id": "U5pKXaWFYmi5FCLlEJaPMg", "alias": "american-made-general-store-conway", "name": "American Made General Store", "image_url": "https://s3-media4.fl.yelpcdn.com/bphoto/CioFohNQq38fGE2RMEWoNw/o.jpg", "is_closed": false, "url": "https://www.yelp.com/biz/american-made-general-store-conway?adjust_creative=_XtPN5sB9p2gFalQqwrzYQ&utm_campaign=yelp_api_v3&utm_medium=api_v3_business_search&utm_source=_XtPN5sB9p2gFalQqwrzYQ", "review_count": 1, "categories": [{"alias": "grocery", "title": "Grocery"}, {"alias": "menscloth", "title": "Men's Clothing"}, {"alias": "giftshops", "title": "Gift Shops"}], "rating": 1.0, "coordinates": {"latitude": 35.086110281811465, "longitude": -92.34369513471124}, "transactions": [], "location": {"address1": "429 US-64 E", "address2": null, "address3": "", "city": "Conway", "zip_code": "72032", "country": "US", "state": "AR", "display_address": ["429 US-64 E", "Conway, AR 72032"]}, "phone": "+15015857090", "display_phone": "(501) 585-7090", "distance": 37591.12051064157}, {"id": "lAzh7ZO3_VciHd1MTVMbMw", "alias": "trinkets-and-traditions-flower-shop-little-rock", "name": "Trinkets And Traditions Flower Shop", "image_url": "https://s3-media2.fl.yelpcdn.com/bphoto/CJvCL7WJpr60VONXwigmPg/o.jpg", "is_closed": false, "url": "https://www.yelp.com/biz/trinkets-and-traditions-flower-shop-little-rock?adjust_creative=_XtPN5sB9p2gFalQqwrzYQ&utm_campaign=yelp_api_v3&utm_medium=api_v3_business_search&utm_source=_XtPN5sB9p2gFalQqwrzYQ", "review_count": 7, "categories": [{"alias": "florists", "title": "Florists"}], "rating": 1.0, "coordinates": {"latitude": 34.6259299, "longitude": -92.31506}, "transactions": [], "location": {"address1": "13724 Arch St", "address2": null, "address3": null, "city": "Little Rock", "zip_code": "72206", "country": "US", "state": "AR", "display_address": ["13724 Arch St", "Little Rock, AR 72206"]}, "phone": "+15015039770", "display_phone": "(501) 503-9770", "distance": 14154.709734748974}, {"id": "I9B4lcD8pGO5AatyJwJ3fQ", "alias": "north-hills-florist-and-gifts-sherwood-2", "name": "North Hills Florist & Gifts", "image_url": "https://s3-media4.fl.yelpcdn.com/bphoto/aVZ8NjqpIJXch7bIyFPG2w/o.jpg", "is_closed": false, "url": "https://www.yelp.com/biz/north-hills-florist-and-gifts-sherwood-2?adjust_creative=_XtPN5sB9p2gFalQqwrzYQ&utm_campaign=yelp_api_v3&utm_medium=api_v3_business_search&utm_source=_XtPN5sB9p2gFalQqwrzYQ", "review_count": 7, "categories": [{"alias": "florists", "title": "Florists"}], "rating": 4.0, "coordinates": {"latitude": 34.81768513802531, "longitude": -92.2345086073576}, "transactions": [], "location": {"address1": "7311 N Hills Blvd", "address2": "Ste 15", "address3": "", "city": "North Little Rock", "zip_code": "72116", "country": "US", "state": "AR", "display_address": ["7311 N Hills Blvd", "Ste 15", "North Little Rock, AR 72116"]}, "phone": "+15018351367", "display_phone": "(501) 835-1367", "distance": 13562.457255968688}]